[
  {
    "id": 2,
    "title": "Залізнична станція Бориспіль",
    "type": "raillway",
    "coordinates": [30.9434587, 50.3766107],
    "address": "Не визначено",
    "source": "[1, 22, 23]"
  },
  {
    "id": 3,
    "title": "Церква Святих Бориса і Гліба",
    "type": "culture",
    "coordinates": [30.9722, 50.3388],
    "address": "вул. Покровська, 3, Бориспіль",
    "source": "[1, 24, 25, 26, 27, 28]"
  },
  {
    "id": 4,
    "title": "Свято-Миколаївська церква",
    "type": "culture",
    "coordinates": [30.9334, 50.36155],
    "address": "вул. Київський Шлях, 33/1, Бориспіль",
    "source": "[8, 30, 31, 32, 33]"
  },
  {
    "id": 5,
    "title": "Меморіал Слави",
    "type": "culture",
    "coordinates": [30.950833, 50.351111],
    "address": "вул. Київський шлях, 72, Бориспіль",
    "source": "[8, 22, 34]"
  },
  {
    "id": 6,
    "title": "Пам'ятник князю Борису",
    "type": "culture",
    "coordinates": [30.950833, 50.351111],
    "address": "Не визначено",
    "source": "[8, 22, 23, 35, 36]"
  },
  {
    "id": 7,
    "title": "Бориспільський державний історичний музей",
    "type": "culture",
    "coordinates": [30.957589, 50.347296],
    "address": "вулиця Київський шлях, 89, Бориспіль",
    "source": "[8, 20, 37, 38, 39, 40]"
  },
  {
    "id": 8,
    "title": "Бориспільська центральна районна лікарня",
    "type": "hospital",
    "coordinates": [30.946118, 50.346109],
    "address": "вул. Котляревського, 1, Бориспіль, Київська область, Україна, 08301",
    "source": "[5, 17, 42, 43, 44, 41, 45, 46]"
  },
  {
    "id": 9,
    "title": "Аеромол",
    "type": "mall",
    "coordinates": [30.921465, 50.364258],
    "address": "вул. Київський Шлях, 2/6, Бориспіль",
    "source": "[6, 7, 15]"
  },
  {
    "id": 10,
    "title": "ЦУМ \"Київський Шлях\"",
    "type": "mall",
    "coordinates": [30.942009, 50.357201],
    "address": "вул. Київський Шлях, 14Ж, Бориспіль",
    "source": "[7, 55, 56, 54, 57, 58, 59]"
  },
  {
    "id": 11,
    "title": "Парк Таун",
    "type": "mall",
    "coordinates": [30.95615, 50.351725],
    "address": "Kievskij shlyah street, 16j, Бориспіль",
    "source": "[7, 15, 16, 60, 61]"
  },
  {
    "id": 12,
    "title": "Центральний парк Борисполя",
    "type": "park",
    "coordinates": [30.950565, 50.353279],
    "address": "вул. Київський Шлях, 67, Бориспіль",
    "source": "[8, 60, 38, 62, 63, 64, 65]"
  },
  {
    "id": 13,
    "title": "Національний природний парк \"Біле Озеро\"",
    "type": "park",
    "coordinates": [31.577972, 49.895972],
    "address": "Розташований між Бориспільським районом Київської області та Черкаським районом Черкаської області",
    "source": "[11, 18]"
  },
  {
    "id": 14,
    "title": "Книшовий меморіальний парковий комплекс",
    "type": "park",
    "coordinates": [30.9334, 50.36155],
    "address": "вул. Київський шлях, 33/1, Бориспіль",
    "source": "[8, 66, 56, 67]"
  },
  {
    "id": 15,
    "title": "McDonald's",
    "type": "restaurant",
    "coordinates": [30.9494228, 50.3531595],
    "address": "Kievskij shlyah street, 16j, Бориспіль",
    "source": "[7, 9]"
  },
  {
    "id": 16,
    "title": "Ресторан Колиба",
    "type": "restaurant",
    "coordinates": [30.921421, 50.365326],
    "address": "вул. Київський шлях 2/8, Бориспіль",
    "source": "[11, 22, 68, 69, 59]"
  },
  {
    "id": 17,
    "title": "Ресторан Korleone",
    "type": "restaurant",
    "coordinates": [30.951139, 50.351807],
    "address": "вул. Київський шлях 71а/1, Бориспіль",
    "source": "[11, 70, 71, 39, 72]"
  },
  {
    "id": 18,
    "title": "Медичний центр Тім Спіріт Медікал",
    "type": "hospital",
    "coordinates": [30.945890068615157, 50.34677491512896],
    "address": "м. Бориспіль, вул. Бабкіна, 6",
    "source": "[22, 47, 48]"
  },
  {
    "id": 19,
    "title": "Медіан (Median), медичний центр",
    "type": "hospital",
    "coordinates": [30.943723, 50.3739],
    "address": "вул. Головатого, 89, Бориспіль",
    "source": "[49, 50, 51]"
  },
  {
    "id": 20,
    "title": "Медичний центр (вул. Київський Шлях, 95)",
    "type": "hospital",
    "coordinates": [30.959990068615157, 50.34506491512896],
    "address": "вул. Київський Шлях, 95, Бориспіль",
    "source": "[54, 51, 52, 53]"
  },

  {
    "id": 23,
    "title": "Аптека 911",
    "type": "pharmacy",
    "coordinates": [30.954890068615157, 50.34977491512896],
    "address": "м. Бориспіль, вул. Київський Шлях, 79В",
    "source": "[76, 77, 78]"
  },
  {
    "id": 24,
    "title": "Бориспільський відділ поліції",
    "type": "police",
    "coordinates": [30.93146020937475, 50.36339482447255],
    "address": "м. Бориспіль, вул. Сергія Камінського, 4",
    "source": "[22, 79, 80, 81, 82]"
  },

  {
    "id": 25,
    "title": "Стадіон Колос",
    "type": "stadium",
    "coordinates": [30.9536909, 50.3541664],
    "address": "вулиця Стадіонна",
    "source": "Wikipedia, PFL.ua"
  },

  {
    "id": 32,
    "title": "АЗС WOG",
    "type": "fuel",
    "coordinates": [30.920556, 50.364444],
    "address": "вул. Київський Шлях, 2/2-Б, м. Бориспіль",
    "source": "Google Maps"
  },
  {
    "id": 33,
    "title": "АЗС KLO",
    "type": "fuel",
    "coordinates": [30.902334, 50.362779],
    "address": "вул. Київський Шлях, 1, м. Бориспіль (на виїзді з міста)",
    "source": "Google Maps"
  },
  {
    "id": 34,
    "title": "АЗС ОККО",
    "type": "fuel",
    "coordinates": [30.957591, 50.347395],
    "address": "вул. Київський Шлях, 89 (біля Музею), м. Бориспіль",
    "source": "Google Maps"
  },
  {
    "id": 35,
    "title": "АЗС UPG",
    "type": "fuel",
    "coordinates": [30.963177, 50.34351],
    "address": "вул. Київський Шлях, 120, м. Бориспіль",
    "source": "Google Maps"
  }
]
